[
  {"iata": "JFK", "city": "New York City", "country": "United States", "country_code": "US", "region": "North America", "subregion": "US East", "latitude": 40.6413, "longitude": -73.7781, "typical_price_tier": "budget"},
  {"iata": "LAX", "city": "Los Angeles", "country": "United States", "country_code": "US", "region": "North America", "subregion": "US West", "latitude": 33.9425, "longitude": -118.4081, "typical_price_tier": "budget"},
  {"iata": "ORD", "city": "Chicago", "country": "United States", "country_code": "US", "region": "North America", "subregion": "US Midwest", "latitude": 41.9742, "longitude": -87.9073, "typical_price_tier": "budget"},
  {"iata": "MIA", "city": "Miami", "country": "United States", "country_code": "US", "region": "North America", "subregion": "US South", "latitude": 25.7959, "longitude": -80.2870, "typical_price_tier": "budget"},
  {"iata": "DFW", "city": "Dallas", "country": "United States", "country_code": "US", "region": "North America", "subregion": "US South", "latitude": 32.8998, "longitude": -97.0403, "typical_price_tier": "budget"},
  {"iata": "ATL", "city": "Atlanta", "country": "United States", "country_code": "US", "region": "North America", "subregion": "US South", "latitude": 33.6407, "longitude": -84.4277, "typical_price_tier": "budget"},
  {"iata": "SEA", "city": "Seattle", "country": "United States", "country_code": "US", "region": "North America", "subregion": "US West", "latitude": 47.4502, "longitude": -122.3088, "typical_price_tier": "budget"},
  {"iata": "DEN", "city": "Denver / Aurora", "country": "United States", "country_code": "US", "region": "North America", "subregion": "US Mountain", "latitude": 39.8561, "longitude": -104.6737, "typical_price_tier": "budget"},
  {"iata": "BOS", "city": "Boston / Cambridge", "country": "United States", "country_code": "US", "region": "North America", "subregion": "US East", "latitude": 42.3656, "longitude": -71.0096, "typical_price_tier": "budget"},
  {"iata": "LAS", "city": "Las Vegas", "country": "United States", "country_code": "US", "region": "North America", "subregion": "US West", "latitude": 36.0840, "longitude": -115.1537, "typical_price_tier": "budget"},
  {"iata": "SFO", "city": "San Francisco", "country": "United States", "country_code": "US", "region": "North America", "subregion": "US West", "latitude": 37.6213, "longitude": -122.3790, "typical_price_tier": "budget"},
  {"iata": "HNL", "city": "Honolulu", "country": "United States", "country_code": "US", "region": "North America", "subregion": "US Pacific", "latitude": 21.3245, "longitude": -157.9251, "typical_price_tier": "moderate"},
  {"iata": "MCO", "city": "Orlando", "country": "United States", "country_code": "US", "region": "North America", "subregion": "US South", "latitude": 28.4312, "longitude": -81.3081, "typical_price_tier": "budget"},
  {"iata": "MSP", "city": "Minneapolis / St. Paul", "country": "United States", "country_code": "US", "region": "North America", "subregion": "US Midwest", "latitude": 44.8848, "longitude": -93.2223, "typical_price_tier": "budget"},
  {"iata": "PHX", "city": "Phoenix / Scottsdale", "country": "United States", "country_code": "US", "region": "North America", "subregion": "US Mountain", "latitude": 33.4373, "longitude": -112.0078, "typical_price_tier": "budget"},
  {"iata": "PDX", "city": "Portland", "country": "United States", "country_code": "US", "region": "North America", "subregion": "US West", "latitude": 45.5898, "longitude": -122.5951, "typical_price_tier": "budget"},
  {"iata": "SAN", "city": "San Diego", "country": "United States", "country_code": "US", "region": "North America", "subregion": "US West", "latitude": 32.7338, "longitude": -117.1933, "typical_price_tier": "budget"},
  {"iata": "AUS", "city": "Austin", "country": "United States", "country_code": "US", "region": "North America", "subregion": "US South", "latitude": 30.1975, "longitude": -97.6664, "typical_price_tier": "budget"},
  {"iata": "MSY", "city": "New Orleans", "country": "United States", "country_code": "US", "region": "North America", "subregion": "US South", "latitude": 29.9934, "longitude": -90.2580, "typical_price_tier": "budget"},
  {"iata": "DTW", "city": "Detroit", "country": "United States", "country_code": "US", "region": "North America", "subregion": "US Midwest", "latitude": 42.2124, "longitude": -83.3534, "typical_price_tier": "budget"},
  {"iata": "IAD", "city": "District of Columbia", "country": "United States", "country_code": "US", "region": "North America", "subregion": "US East", "latitude": 38.9531, "longitude": -77.4565, "typical_price_tier": "budget"},
  {"iata": "PHL", "city": "Philadelphia", "country": "United States", "country_code": "US", "region": "North America", "subregion": "US East", "latitude": 39.8744, "longitude": -75.2424, "typical_price_tier": "budget"},
  {"iata": "CLT", "city": "Charlotte", "country": "United States", "country_code": "US", "region": "North America", "subregion": "US South", "latitude": 35.2140, "longitude": -80.9431, "typical_price_tier": "budget"},
  {"iata": "TPA", "city": "Tampa / St. Petersburg", "country": "United States", "country_code": "US", "region": "North America", "subregion": "US South", "latitude": 27.9755, "longitude": -82.5332, "typical_price_tier": "budget"},
  {"iata": "RDU", "city": "Raleigh", "country": "United States", "country_code": "US", "region": "North America", "subregion": "US South", "latitude": 35.8776, "longitude": -78.7875, "typical_price_tier": "budget"},
  {"iata": "IAH", "city": "Houston", "country": "United States", "country_code": "US", "region": "North America", "subregion": "US South", "latitude": 29.9902, "longitude": -95.3368, "typical_price_tier": "budget"},
  {"iata": "SLC", "city": "Salt Lake City", "country": "United States", "country_code": "US", "region": "North America", "subregion": "US Mountain", "latitude": 40.7899, "longitude": -111.9791, "typical_price_tier": "budget"},
  {"iata": "STL", "city": "St. Louis", "country": "United States", "country_code": "US", "region": "North America", "subregion": "US Midwest", "latitude": 38.7487, "longitude": -90.3700, "typical_price_tier": "budget"},
  {"iata": "BNA", "city": "Nashville", "country": "United States", "country_code": "US", "region": "North America", "subregion": "US South", "latitude": 36.1263, "longitude": -86.6774, "typical_price_tier": "budget"},
  {"iata": "SAT", "city": "San Antonio", "country": "United States", "country_code": "US", "region": "North America", "subregion": "US South", "latitude": 29.5337, "longitude": -98.4698, "typical_price_tier": "budget"},
  {"iata": "MCI", "city": "Kansas City", "country": "United States", "country_code": "US", "region": "North America", "subregion": "US Midwest", "latitude": 39.2976, "longitude": -94.7139, "typical_price_tier": "budget"},
  {"iata": "IND", "city": "Indianapolis / Carmel", "country": "United States", "country_code": "US", "region": "North America", "subregion": "US Midwest", "latitude": 39.7173, "longitude": -86.2944, "typical_price_tier": "budget"},
  {"iata": "CMH", "city": "Columbus", "country": "United States", "country_code": "US", "region": "North America", "subregion": "US Midwest", "latitude": 39.9980, "longitude": -82.8919, "typical_price_tier": "budget"},
  {"iata": "PIT", "city": "Pittsburgh", "country": "United States", "country_code": "US", "region": "North America", "subregion": "US East", "latitude": 40.4915, "longitude": -80.2329, "typical_price_tier": "budget"},
  {"iata": "BUF", "city": "Buffalo", "country": "United States", "country_code": "US", "region": "North America", "subregion": "US East", "latitude": 42.9405, "longitude": -78.7322, "typical_price_tier": "budget"},
  {"iata": "CLE", "city": "Cleveland", "country": "United States", "country_code": "US", "region": "North America", "subregion": "US Midwest", "latitude": 41.4117, "longitude": -81.8498, "typical_price_tier": "budget"},
  {"iata": "MKE", "city": "Milwaukee", "country": "United States", "country_code": "US", "region": "North America", "subregion": "US Midwest", "latitude": 42.9472, "longitude": -87.8966, "typical_price_tier": "budget"},
  {"iata": "RSW", "city": "Fort Myers", "country": "United States", "country_code": "US", "region": "North America", "subregion": "US South", "latitude": 26.5362, "longitude": -81.7552, "typical_price_tier": "budget"},
  {"iata": "JAX", "city": "Jacksonville", "country": "United States", "country_code": "US", "region": "North America", "subregion": "US South", "latitude": 30.4941, "longitude": -81.6879, "typical_price_tier": "budget"},
  {"iata": "CHS", "city": "Charleston", "country": "United States", "country_code": "US", "region": "North America", "subregion": "US South", "latitude": 32.8986, "longitude": -80.0405, "typical_price_tier": "budget"},
  {"iata": "SAV", "city": "Savannah", "country": "United States", "country_code": "US", "region": "North America", "subregion": "US South", "latitude": 32.1276, "longitude": -81.2021, "typical_price_tier": "budget"},
  {"iata": "OKC", "city": "Oklahoma City", "country": "United States", "country_code": "US", "region": "North America", "subregion": "US South", "latitude": 35.3931, "longitude": -97.6007, "typical_price_tier": "budget"},
  {"iata": "ABQ", "city": "Albuquerque", "country": "United States", "country_code": "US", "region": "North America", "subregion": "US Mountain", "latitude": 35.0402, "longitude": -106.6090, "typical_price_tier": "budget"},
  {"iata": "SJC", "city": "Sunnyvale / Palo Alto / San Jose", "country": "United States", "country_code": "US", "region": "North America", "subregion": "US West", "latitude": 37.3626, "longitude": -121.9290, "typical_price_tier": "budget"},
  {"iata": "OAK", "city": "Oakland", "country": "United States", "country_code": "US", "region": "North America", "subregion": "US West", "latitude": 37.7213, "longitude": -122.2208, "typical_price_tier": "budget"},
  {"iata": "SMF", "city": "Sacramento", "country": "United States", "country_code": "US", "region": "North America", "subregion": "US West", "latitude": 38.6954, "longitude": -121.5908, "typical_price_tier": "budget"},
  {"iata": "BHM", "city": "Birmingham", "country": "United States", "country_code": "US", "region": "North America", "subregion": "US South", "latitude": 33.5629, "longitude": -86.7535, "typical_price_tier": "budget"},
  {"iata": "MEM", "city": "Memphis", "country": "United States", "country_code": "US", "region": "North America", "subregion": "US South", "latitude": 35.0424, "longitude": -89.9767, "typical_price_tier": "budget"},
  {"iata": "LIT", "city": "Little Rock", "country": "United States", "country_code": "US", "region": "North America", "subregion": "US South", "latitude": 34.7294, "longitude": -92.2243, "typical_price_tier": "budget"},
  {"iata": "SDF", "city": "Louisville", "country": "United States", "country_code": "US", "region": "North America", "subregion": "US South", "latitude": 38.1744, "longitude": -85.7360, "typical_price_tier": "budget"},
  {"iata": "RIC", "city": "Richmond", "country": "United States", "country_code": "US", "region": "North America", "subregion": "US South", "latitude": 37.5052, "longitude": -77.3197, "typical_price_tier": "budget"},
  {"iata": "ORF", "city": "Norfolk", "country": "United States", "country_code": "US", "region": "North America", "subregion": "US South", "latitude": 36.8976, "longitude": -76.0132, "typical_price_tier": "budget"},
  {"iata": "BOI", "city": "Boise", "country": "United States", "country_code": "US", "region": "North America", "subregion": "US West", "latitude": 43.5644, "longitude": -116.2228, "typical_price_tier": "budget"},
  {"iata": "GEG", "city": "Spokane", "country": "United States", "country_code": "US", "region": "North America", "subregion": "US West", "latitude": 47.6199, "longitude": -117.5338, "typical_price_tier": "budget"},
  {"iata": "FAT", "city": "Fresno", "country": "United States", "country_code": "US", "region": "North America", "subregion": "US West", "latitude": 36.7762, "longitude": -119.7181, "typical_price_tier": "budget"},
  {"iata": "ANC", "city": "Anchorage", "country": "United States", "country_code": "US", "region": "North America", "subregion": "US Pacific", "latitude": 61.1744, "longitude": -149.9961, "typical_price_tier": "moderate"},
  {"iata": "DSM", "city": "Des Moines", "country": "United States", "country_code": "US", "region": "North America", "subregion": "US Midwest", "latitude": 41.5330, "longitude": -93.6631, "typical_price_tier": "budget"},
  {"iata": "OMA", "city": "Omaha", "country": "United States", "country_code": "US", "region": "North America", "subregion": "US Midwest", "latitude": 41.3032, "longitude": -95.8940, "typical_price_tier": "budget"},
  {"iata": "YYZ", "city": "Toronto", "country": "Canada", "country_code": "CA", "region": "North America", "subregion": "Canada East", "latitude": 43.6777, "longitude": -79.6248, "typical_price_tier": "budget"},
  {"iata": "YVR", "city": "Vancouver", "country": "Canada", "country_code": "CA", "region": "North America", "subregion": "Canada West", "latitude": 49.1939, "longitude": -123.1844, "typical_price_tier": "budget"},
  {"iata": "YUL", "city": "Montreal", "country": "Canada", "country_code": "CA", "region": "North America", "subregion": "Canada East", "latitude": 45.4706, "longitude": -73.7408, "typical_price_tier": "budget"},
  {"iata": "YYC", "city": "Calgary", "country": "Canada", "country_code": "CA", "region": "North America", "subregion": "Canada West", "latitude": 51.1215, "longitude": -114.0127, "typical_price_tier": "budget"},
  {"iata": "YEG", "city": "Edmonton", "country": "Canada", "country_code": "CA", "region": "North America", "subregion": "Canada West", "latitude": 53.3097, "longitude": -113.5797, "typical_price_tier": "budget"},
  {"iata": "YOW", "city": "Ottawa", "country": "Canada", "country_code": "CA", "region": "North America", "subregion": "Canada East", "latitude": 45.3225, "longitude": -75.6692, "typical_price_tier": "budget"},
  {"iata": "CUN", "city": "Cancun", "country": "Mexico", "country_code": "MX", "region": "Mexico / Central America", "subregion": "Mexico", "latitude": 21.0365, "longitude": -86.8771, "typical_price_tier": "budget"},
  {"iata": "MEX", "city": "Mexico City", "country": "Mexico", "country_code": "MX", "region": "Mexico / Central America", "subregion": "Mexico", "latitude": 19.4363, "longitude": -99.0721, "typical_price_tier": "moderate"},
  {"iata": "GDL", "city": "Guadalajara", "country": "Mexico", "country_code": "MX", "region": "Mexico / Central America", "subregion": "Mexico", "latitude": 20.5218, "longitude": -103.3110, "typical_price_tier": "moderate"},
  {"iata": "MTY", "city": "Monterrey", "country": "Mexico", "country_code": "MX", "region": "Mexico / Central America", "subregion": "Mexico", "latitude": 25.7785, "longitude": -100.1068, "typical_price_tier": "moderate"},
  {"iata": "SJD", "city": "Los Cabos", "country": "Mexico", "country_code": "MX", "region": "Mexico / Central America", "subregion": "Mexico", "latitude": 23.1518, "longitude": -109.7215, "typical_price_tier": "moderate"},
  {"iata": "PVR", "city": "Puerto Vallarta", "country": "Mexico", "country_code": "MX", "region": "Mexico / Central America", "subregion": "Mexico", "latitude": 20.6801, "longitude": -105.2544, "typical_price_tier": "moderate"},
  {"iata": "SJO", "city": "San Jose", "country": "Costa Rica", "country_code": "CR", "region": "Mexico / Central America", "subregion": "Central America", "latitude": 9.9939, "longitude": -84.2088, "typical_price_tier": "moderate"},
  {"iata": "PTY", "city": "Panama City", "country": "Panama", "country_code": "PA", "region": "Mexico / Central America", "subregion": "Central America", "latitude": 9.0714, "longitude": -79.3835, "typical_price_tier": "moderate"},
  {"iata": "GUA", "city": "Guatemala City", "country": "Guatemala", "country_code": "GT", "region": "Mexico / Central America", "subregion": "Central America", "latitude": 14.5833, "longitude": -90.5275, "typical_price_tier": "moderate"},
  {"iata": "SAL", "city": "San Salvador", "country": "El Salvador", "country_code": "SV", "region": "Mexico / Central America", "subregion": "Central America", "latitude": 13.4409, "longitude": -89.0557, "typical_price_tier": "moderate"},
  {"iata": "MGA", "city": "Managua", "country": "Nicaragua", "country_code": "NI", "region": "Mexico / Central America", "subregion": "Central America", "latitude": 12.1415, "longitude": -86.1682, "typical_price_tier": "moderate"},
  {"iata": "BZE", "city": "Belize City", "country": "Belize", "country_code": "BZ", "region": "Mexico / Central America", "subregion": "Central America", "latitude": 17.5391, "longitude": -88.3082, "typical_price_tier": "moderate"},
  {"iata": "NAS", "city": "Nassau", "country": "Bahamas", "country_code": "BS", "region": "Caribbean", "subregion": "Bahamas", "latitude": 25.0390, "longitude": -77.4661, "typical_price_tier": "moderate"},
  {"iata": "MBJ", "city": "Montego Bay", "country": "Jamaica", "country_code": "JM", "region": "Caribbean", "subregion": "Greater Antilles", "latitude": 18.5037, "longitude": -77.9134, "typical_price_tier": "moderate"},
  {"iata": "KIN", "city": "Kingston", "country": "Jamaica", "country_code": "JM", "region": "Caribbean", "subregion": "Greater Antilles", "latitude": 17.9357, "longitude": -76.7875, "typical_price_tier": "moderate"},
  {"iata": "PUJ", "city": "Punta Cana", "country": "Dominican Republic", "country_code": "DO", "region": "Caribbean", "subregion": "Greater Antilles", "latitude": 18.5674, "longitude": -68.3634, "typical_price_tier": "moderate"},
  {"iata": "SDQ", "city": "Santo Domingo", "country": "Dominican Republic", "country_code": "DO", "region": "Caribbean", "subregion": "Greater Antilles", "latitude": 18.4297, "longitude": -69.6689, "typical_price_tier": "moderate"},
  {"iata": "SJU", "city": "San Juan", "country": "Puerto Rico", "country_code": "PR", "region": "Caribbean", "subregion": "Greater Antilles", "latitude": 18.4394, "longitude": -66.0018, "typical_price_tier": "moderate"},
  {"iata": "BGI", "city": "Bridgetown", "country": "Barbados", "country_code": "BB", "region": "Caribbean", "subregion": "Lesser Antilles", "latitude": 13.0746, "longitude": -59.4925, "typical_price_tier": "moderate"},
  {"iata": "AUA", "city": "Oranjestad", "country": "Aruba", "country_code": "AW", "region": "Caribbean", "subregion": "Lesser Antilles", "latitude": 12.5014, "longitude": -70.0152, "typical_price_tier": "moderate"},
  {"iata": "CUR", "city": "Willemstad", "country": "Curacao", "country_code": "CW", "region": "Caribbean", "subregion": "Lesser Antilles", "latitude": 12.1889, "longitude": -68.9598, "typical_price_tier": "moderate"},
  {"iata": "GCM", "city": "Grand Cayman", "country": "Cayman Islands", "country_code": "KY", "region": "Caribbean", "subregion": "Greater Antilles", "latitude": 19.2928, "longitude": -81.3576, "typical_price_tier": "moderate"},
  {"iata": "STT", "city": "St. Thomas", "country": "US Virgin Islands", "country_code": "VI", "region": "Caribbean", "subregion": "Lesser Antilles", "latitude": 18.3373, "longitude": -64.9733, "typical_price_tier": "moderate"},
  {"iata": "SKB", "city": "Basseterre", "country": "Saint Kitts and Nevis", "country_code": "KN", "region": "Caribbean", "subregion": "Lesser Antilles", "latitude": 17.3112, "longitude": -62.7188, "typical_price_tier": "moderate"},
  {"iata": "UVF", "city": "St. Lucia", "country": "Saint Lucia", "country_code": "LC", "region": "Caribbean", "subregion": "Lesser Antilles", "latitude": 13.7332, "longitude": -60.9526, "typical_price_tier": "moderate"},
  {"iata": "SVD", "city": "Kingstown", "country": "Saint Vincent", "country_code": "VC", "region": "Caribbean", "subregion": "Lesser Antilles", "latitude": 13.1443, "longitude": -61.2102, "typical_price_tier": "moderate"},
  {"iata": "GND", "city": "St. George's", "country": "Grenada", "country_code": "GD", "region": "Caribbean", "subregion": "Lesser Antilles", "latitude": 12.0042, "longitude": -61.7862, "typical_price_tier": "moderate"},
  {"iata": "HAV", "city": "Havana", "country": "Cuba", "country_code": "CU", "region": "Caribbean", "subregion": "Greater Antilles", "latitude": 22.9892, "longitude": -82.4091, "typical_price_tier": "moderate"},
  {"iata": "POS", "city": "Port of Spain", "country": "Trinidad and Tobago", "country_code": "TT", "region": "Caribbean", "subregion": "Lesser Antilles", "latitude": 10.5954, "longitude": -61.3373, "typical_price_tier": "moderate"},
  {"iata": "BOG", "city": "Bogota", "country": "Colombia", "country_code": "CO", "region": "South America", "subregion": "Northern SA", "latitude": 4.7016, "longitude": -74.1469, "typical_price_tier": "moderate"},
  {"iata": "MDE", "city": "Medellin", "country": "Colombia", "country_code": "CO", "region": "South America", "subregion": "Northern SA", "latitude": 6.1645, "longitude": -75.4231, "typical_price_tier": "moderate"},
  {"iata": "CTG", "city": "Cartagena", "country": "Colombia", "country_code": "CO", "region": "South America", "subregion": "Northern SA", "latitude": 10.4424, "longitude": -75.5130, "typical_price_tier": "moderate"},
  {"iata": "LIM", "city": "Lima", "country": "Peru", "country_code": "PE", "region": "South America", "subregion": "Western SA", "latitude": -12.0219, "longitude": -77.1143, "typical_price_tier": "moderate"},
  {"iata": "CUZ", "city": "Cusco", "country": "Peru", "country_code": "PE", "region": "South America", "subregion": "Western SA", "latitude": -13.5357, "longitude": -71.9388, "typical_price_tier": "moderate"},
  {"iata": "UIO", "city": "Quito", "country": "Ecuador", "country_code": "EC", "region": "South America", "subregion": "Western SA", "latitude": -0.1292, "longitude": -78.3575, "typical_price_tier": "moderate"},
  {"iata": "GYE", "city": "Guayaquil", "country": "Ecuador", "country_code": "EC", "region": "South America", "subregion": "Western SA", "latitude": -2.1574, "longitude": -79.8836, "typical_price_tier": "moderate"},
  {"iata": "GIG", "city": "Rio de Janeiro", "country": "Brazil", "country_code": "BR", "region": "South America", "subregion": "Brazil", "latitude": -22.8099, "longitude": -43.2505, "typical_price_tier": "moderate"},
  {"iata": "GRU", "city": "Sao Paulo", "country": "Brazil", "country_code": "BR", "region": "South America", "subregion": "Brazil", "latitude": -23.4356, "longitude": -46.4731, "typical_price_tier": "moderate"},
  {"iata": "SSA", "city": "Salvador", "country": "Brazil", "country_code": "BR", "region": "South America", "subregion": "Brazil", "latitude": -12.9111, "longitude": -38.3225, "typical_price_tier": "moderate"},
  {"iata": "REC", "city": "Recife", "country": "Brazil", "country_code": "BR", "region": "South America", "subregion": "Brazil", "latitude": -8.1265, "longitude": -34.9229, "typical_price_tier": "moderate"},
  {"iata": "FLN", "city": "Florianopolis", "country": "Brazil", "country_code": "BR", "region": "South America", "subregion": "Brazil", "latitude": -27.6700, "longitude": -48.5472, "typical_price_tier": "moderate"},
  {"iata": "MVD", "city": "Montevideo", "country": "Uruguay", "country_code": "UY", "region": "South America", "subregion": "Southern SA", "latitude": -34.8384, "longitude": -56.0308, "typical_price_tier": "moderate"},
  {"iata": "EZE", "city": "Buenos Aires", "country": "Argentina", "country_code": "AR", "region": "South America", "subregion": "Southern SA", "latitude": -34.8222, "longitude": -58.5358, "typical_price_tier": "moderate"},
  {"iata": "SCL", "city": "Santiago", "country": "Chile", "country_code": "CL", "region": "South America", "subregion": "Southern SA", "latitude": -33.3930, "longitude": -70.7858, "typical_price_tier": "moderate"},
  {"iata": "ASU", "city": "Asuncion", "country": "Paraguay", "country_code": "PY", "region": "South America", "subregion": "Southern SA", "latitude": -25.2400, "longitude": -57.5200, "typical_price_tier": "moderate"},
  {"iata": "CCS", "city": "Caracas", "country": "Venezuela", "country_code": "VE", "region": "South America", "subregion": "Northern SA", "latitude": 10.6031, "longitude": -66.9906, "typical_price_tier": "moderate"},
  {"iata": "VCP", "city": "Campinas", "country": "Brazil", "country_code": "BR", "region": "South America", "subregion": "Brazil", "latitude": -23.0074, "longitude": -47.1345, "typical_price_tier": "moderate"},
  {"iata": "LHR", "city": "London", "country": "United Kingdom", "country_code": "GB", "region": "Western Europe", "subregion": "British Isles", "latitude": 51.4775, "longitude": -0.4614, "typical_price_tier": "moderate"},
  {"iata": "LGW", "city": "London Gatwick", "country": "United Kingdom", "country_code": "GB", "region": "Western Europe", "subregion": "British Isles", "latitude": 51.1481, "longitude": -0.1902, "typical_price_tier": "moderate"},
  {"iata": "MAN", "city": "Manchester", "country": "United Kingdom", "country_code": "GB", "region": "Western Europe", "subregion": "British Isles", "latitude": 53.3650, "longitude": -2.2728, "typical_price_tier": "moderate"},
  {"iata": "EDI", "city": "Edinburgh", "country": "United Kingdom", "country_code": "GB", "region": "Western Europe", "subregion": "British Isles", "latitude": 55.9500, "longitude": -3.3725, "typical_price_tier": "moderate"},
  {"iata": "DUB", "city": "Dublin", "country": "Ireland", "country_code": "IE", "region": "Western Europe", "subregion": "British Isles", "latitude": 53.4213, "longitude": -6.2700, "typical_price_tier": "moderate"},
  {"iata": "CDG", "city": "Paris", "country": "France", "country_code": "FR", "region": "Western Europe", "subregion": "Western Europe", "latitude": 49.0097, "longitude": 2.5479, "typical_price_tier": "moderate"},
  {"iata": "NCE", "city": "Nice", "country": "France", "country_code": "FR", "region": "Western Europe", "subregion": "Western Europe", "latitude": 43.6584, "longitude": 7.2159, "typical_price_tier": "moderate"},
  {"iata": "MRS", "city": "Marseille", "country": "France", "country_code": "FR", "region": "Western Europe", "subregion": "Western Europe", "latitude": 43.4365, "longitude": 5.2214, "typical_price_tier": "moderate"},
  {"iata": "AMS", "city": "Amsterdam", "country": "Netherlands", "country_code": "NL", "region": "Western Europe", "subregion": "Western Europe", "latitude": 52.3086, "longitude": 4.7639, "typical_price_tier": "moderate"},
  {"iata": "BRU", "city": "Brussels", "country": "Belgium", "country_code": "BE", "region": "Western Europe", "subregion": "Western Europe", "latitude": 50.9010, "longitude": 4.4856, "typical_price_tier": "moderate"},
  {"iata": "FRA", "city": "Frankfurt", "country": "Germany", "country_code": "DE", "region": "Western Europe", "subregion": "Central Europe", "latitude": 50.0379, "longitude": 8.5622, "typical_price_tier": "moderate"},
  {"iata": "MUC", "city": "Munich", "country": "Germany", "country_code": "DE", "region": "Western Europe", "subregion": "Central Europe", "latitude": 48.3538, "longitude": 11.7861, "typical_price_tier": "moderate"},
  {"iata": "BER", "city": "Berlin", "country": "Germany", "country_code": "DE", "region": "Western Europe", "subregion": "Central Europe", "latitude": 52.3667, "longitude": 13.5033, "typical_price_tier": "moderate"},
  {"iata": "HAM", "city": "Hamburg", "country": "Germany", "country_code": "DE", "region": "Western Europe", "subregion": "Central Europe", "latitude": 53.6304, "longitude": 10.0062, "typical_price_tier": "moderate"},
  {"iata": "DUS", "city": "Dusseldorf", "country": "Germany", "country_code": "DE", "region": "Western Europe", "subregion": "Central Europe", "latitude": 51.2895, "longitude": 6.7668, "typical_price_tier": "moderate"},
  {"iata": "VIE", "city": "Vienna", "country": "Austria", "country_code": "AT", "region": "Western Europe", "subregion": "Central Europe", "latitude": 48.1103, "longitude": 16.5697, "typical_price_tier": "moderate"},
  {"iata": "ZRH", "city": "Zurich", "country": "Switzerland", "country_code": "CH", "region": "Western Europe", "subregion": "Central Europe", "latitude": 47.4647, "longitude": 8.5492, "typical_price_tier": "premium"},
  {"iata": "GVA", "city": "Geneva", "country": "Switzerland", "country_code": "CH", "region": "Western Europe", "subregion": "Central Europe", "latitude": 46.2381, "longitude": 6.1089, "typical_price_tier": "premium"},
  {"iata": "MAD", "city": "Madrid", "country": "Spain", "country_code": "ES", "region": "Western Europe", "subregion": "Iberian Peninsula", "latitude": 40.4719, "longitude": -3.5626, "typical_price_tier": "moderate"},
  {"iata": "BCN", "city": "Barcelona", "country": "Spain", "country_code": "ES", "region": "Western Europe", "subregion": "Iberian Peninsula", "latitude": 41.2971, "longitude": 2.0785, "typical_price_tier": "moderate"},
  {"iata": "AGP", "city": "Malaga", "country": "Spain", "country_code": "ES", "region": "Western Europe", "subregion": "Iberian Peninsula", "latitude": 36.6749, "longitude": -4.4991, "typical_price_tier": "moderate"},
  {"iata": "PMI", "city": "Palma de Mallorca", "country": "Spain", "country_code": "ES", "region": "Western Europe", "subregion": "Iberian Peninsula", "latitude": 39.5517, "longitude": 2.7388, "typical_price_tier": "moderate"},
  {"iata": "SVQ", "city": "Seville", "country": "Spain", "country_code": "ES", "region": "Western Europe", "subregion": "Iberian Peninsula", "latitude": 37.4180, "longitude": -5.8931, "typical_price_tier": "moderate"},
  {"iata": "LIS", "city": "Lisbon", "country": "Portugal", "country_code": "PT", "region": "Western Europe", "subregion": "Iberian Peninsula", "latitude": 38.7813, "longitude": -9.1359, "typical_price_tier": "moderate"},
  {"iata": "OPO", "city": "Porto", "country": "Portugal", "country_code": "PT", "region": "Western Europe", "subregion": "Iberian Peninsula", "latitude": 41.2481, "longitude": -8.6814, "typical_price_tier": "moderate"},
  {"iata": "FCO", "city": "Rome", "country": "Italy", "country_code": "IT", "region": "Western Europe", "subregion": "Southern Europe", "latitude": 41.8003, "longitude": 12.2389, "typical_price_tier": "moderate"},
  {"iata": "MXP", "city": "Milan", "country": "Italy", "country_code": "IT", "region": "Western Europe", "subregion": "Southern Europe", "latitude": 45.6306, "longitude": 8.7231, "typical_price_tier": "moderate"},
  {"iata": "VCE", "city": "Venice", "country": "Italy", "country_code": "IT", "region": "Western Europe", "subregion": "Southern Europe", "latitude": 45.5053, "longitude": 12.3520, "typical_price_tier": "moderate"},
  {"iata": "NAP", "city": "Naples", "country": "Italy", "country_code": "IT", "region": "Western Europe", "subregion": "Southern Europe", "latitude": 40.8860, "longitude": 14.2908, "typical_price_tier": "moderate"},
  {"iata": "ATH", "city": "Athens", "country": "Greece", "country_code": "GR", "region": "Western Europe", "subregion": "Southern Europe", "latitude": 37.9364, "longitude": 23.9445, "typical_price_tier": "moderate"},
  {"iata": "HER", "city": "Heraklion", "country": "Greece", "country_code": "GR", "region": "Western Europe", "subregion": "Southern Europe", "latitude": 35.3397, "longitude": 25.1803, "typical_price_tier": "moderate"},
  {"iata": "MLA", "city": "Valletta", "country": "Malta", "country_code": "MT", "region": "Western Europe", "subregion": "Southern Europe", "latitude": 35.8575, "longitude": 14.4775, "typical_price_tier": "moderate"},
  {"iata": "CPH", "city": "Copenhagen", "country": "Denmark", "country_code": "DK", "region": "Western Europe", "subregion": "Scandinavia", "latitude": 55.6180, "longitude": 12.6560, "typical_price_tier": "premium"},
  {"iata": "ARN", "city": "Stockholm", "country": "Sweden", "country_code": "SE", "region": "Western Europe", "subregion": "Scandinavia", "latitude": 59.6519, "longitude": 17.9186, "typical_price_tier": "premium"},
  {"iata": "OSL", "city": "Oslo", "country": "Norway", "country_code": "NO", "region": "Western Europe", "subregion": "Scandinavia", "latitude": 60.1939, "longitude": 11.1004, "typical_price_tier": "premium"},
  {"iata": "HEL", "city": "Helsinki", "country": "Finland", "country_code": "FI", "region": "Western Europe", "subregion": "Scandinavia", "latitude": 60.3172, "longitude": 24.9633, "typical_price_tier": "premium"},
  {"iata": "WAW", "city": "Warsaw", "country": "Poland", "country_code": "PL", "region": "Eastern Europe", "subregion": "Central-Eastern Europe", "latitude": 52.1657, "longitude": 20.9671, "typical_price_tier": "moderate"},
  {"iata": "KRK", "city": "Krakow", "country": "Poland", "country_code": "PL", "region": "Eastern Europe", "subregion": "Central-Eastern Europe", "latitude": 50.0777, "longitude": 19.7848, "typical_price_tier": "budget"},
  {"iata": "PRG", "city": "Prague", "country": "Czech Republic", "country_code": "CZ", "region": "Eastern Europe", "subregion": "Central-Eastern Europe", "latitude": 50.1008, "longitude": 14.2600, "typical_price_tier": "budget"},
  {"iata": "BTS", "city": "Bratislava", "country": "Slovakia", "country_code": "SK", "region": "Eastern Europe", "subregion": "Central-Eastern Europe", "latitude": 48.1702, "longitude": 17.2127, "typical_price_tier": "budget"},
  {"iata": "BUD", "city": "Budapest", "country": "Hungary", "country_code": "HU", "region": "Eastern Europe", "subregion": "Central-Eastern Europe", "latitude": 47.4298, "longitude": 19.2611, "typical_price_tier": "budget"},
  {"iata": "ZAG", "city": "Zagreb", "country": "Croatia", "country_code": "HR", "region": "Eastern Europe", "subregion": "Balkans", "latitude": 45.7429, "longitude": 16.0688, "typical_price_tier": "budget"},
  {"iata": "DBV", "city": "Dubrovnik", "country": "Croatia", "country_code": "HR", "region": "Eastern Europe", "subregion": "Balkans", "latitude": 42.5614, "longitude": 18.2682, "typical_price_tier": "moderate"},
  {"iata": "SPU", "city": "Split", "country": "Croatia", "country_code": "HR", "region": "Eastern Europe", "subregion": "Balkans", "latitude": 43.5389, "longitude": 16.2980, "typical_price_tier": "moderate"},
  {"iata": "BEG", "city": "Belgrade", "country": "Serbia", "country_code": "RS", "region": "Eastern Europe", "subregion": "Balkans", "latitude": 44.8184, "longitude": 20.3091, "typical_price_tier": "budget"},
  {"iata": "SOF", "city": "Sofia", "country": "Bulgaria", "country_code": "BG", "region": "Eastern Europe", "subregion": "Balkans", "latitude": 42.6967, "longitude": 23.4114, "typical_price_tier": "budget"},
  {"iata": "OTP", "city": "Bucharest", "country": "Romania", "country_code": "RO", "region": "Eastern Europe", "subregion": "Balkans", "latitude": 44.5711, "longitude": 26.0850, "typical_price_tier": "budget"},
  {"iata": "KBP", "city": "Kyiv", "country": "Ukraine", "country_code": "UA", "region": "Eastern Europe", "subregion": "Eastern Europe", "latitude": 50.3451, "longitude": 30.8947, "typical_price_tier": "budget"},
  {"iata": "RIX", "city": "Riga", "country": "Latvia", "country_code": "LV", "region": "Eastern Europe", "subregion": "Baltic States", "latitude": 56.9236, "longitude": 23.9711, "typical_price_tier": "budget"},
  {"iata": "TLL", "city": "Tallinn", "country": "Estonia", "country_code": "EE", "region": "Eastern Europe", "subregion": "Baltic States", "latitude": 59.4133, "longitude": 24.8328, "typical_price_tier": "budget"},
  {"iata": "VNO", "city": "Vilnius", "country": "Lithuania", "country_code": "LT", "region": "Eastern Europe", "subregion": "Baltic States", "latitude": 54.6341, "longitude": 25.2858, "typical_price_tier": "budget"},
  {"iata": "TIA", "city": "Tirana", "country": "Albania", "country_code": "AL", "region": "Eastern Europe", "subregion": "Balkans", "latitude": 41.4147, "longitude": 19.7206, "typical_price_tier": "budget"},
  {"iata": "SKP", "city": "Skopje", "country": "North Macedonia", "country_code": "MK", "region": "Eastern Europe", "subregion": "Balkans", "latitude": 41.9616, "longitude": 21.6214, "typical_price_tier": "budget"},
  {"iata": "IST", "city": "Istanbul", "country": "Turkey", "country_code": "TR", "region": "Middle East", "subregion": "Turkey", "latitude": 41.2753, "longitude": 28.7519, "typical_price_tier": "moderate"},
  {"iata": "AYT", "city": "Antalya", "country": "Turkey", "country_code": "TR", "region": "Middle East", "subregion": "Turkey", "latitude": 36.8987, "longitude": 30.7992, "typical_price_tier": "moderate"},
  {"iata": "TLV", "city": "Tel Aviv", "country": "Israel", "country_code": "IL", "region": "Middle East", "subregion": "Levant", "latitude": 32.0114, "longitude": 34.8867, "typical_price_tier": "moderate"},
  {"iata": "AMM", "city": "Amman", "country": "Jordan", "country_code": "JO", "region": "Middle East", "subregion": "Levant", "latitude": 31.7226, "longitude": 35.9932, "typical_price_tier": "moderate"},
  {"iata": "BEY", "city": "Beirut", "country": "Lebanon", "country_code": "LB", "region": "Middle East", "subregion": "Levant", "latitude": 33.8209, "longitude": 35.4883, "typical_price_tier": "moderate"},
  {"iata": "KWI", "city": "Kuwait City", "country": "Kuwait", "country_code": "KW", "region": "Middle East", "subregion": "Gulf", "latitude": 29.2267, "longitude": 47.9689, "typical_price_tier": "moderate"},
  {"iata": "RUH", "city": "Riyadh", "country": "Saudi Arabia", "country_code": "SA", "region": "Middle East", "subregion": "Gulf", "latitude": 24.9578, "longitude": 46.6989, "typical_price_tier": "moderate"},
  {"iata": "JED", "city": "Jeddah", "country": "Saudi Arabia", "country_code": "SA", "region": "Middle East", "subregion": "Gulf", "latitude": 21.6796, "longitude": 39.1565, "typical_price_tier": "moderate"},
  {"iata": "DXB", "city": "Dubai", "country": "United Arab Emirates", "country_code": "AE", "region": "Middle East", "subregion": "Gulf", "latitude": 25.2532, "longitude": 55.3657, "typical_price_tier": "premium"},
  {"iata": "AUH", "city": "Abu Dhabi", "country": "United Arab Emirates", "country_code": "AE", "region": "Middle East", "subregion": "Gulf", "latitude": 24.4330, "longitude": 54.6511, "typical_price_tier": "premium"},
  {"iata": "DOH", "city": "Doha", "country": "Qatar", "country_code": "QA", "region": "Middle East", "subregion": "Gulf", "latitude": 25.2731, "longitude": 51.6081, "typical_price_tier": "premium"},
  {"iata": "BAH", "city": "Manama", "country": "Bahrain", "country_code": "BH", "region": "Middle East", "subregion": "Gulf", "latitude": 26.2708, "longitude": 50.6336, "typical_price_tier": "moderate"},
  {"iata": "MCT", "city": "Muscat", "country": "Oman", "country_code": "OM", "region": "Middle East", "subregion": "Gulf", "latitude": 23.5933, "longitude": 58.2844, "typical_price_tier": "moderate"},
  {"iata": "CAI", "city": "Cairo", "country": "Egypt", "country_code": "EG", "region": "Middle East", "subregion": "North Africa", "latitude": 30.1219, "longitude": 31.4056, "typical_price_tier": "moderate"},
  {"iata": "HRG", "city": "Hurghada", "country": "Egypt", "country_code": "EG", "region": "Middle East", "subregion": "North Africa", "latitude": 27.1783, "longitude": 33.7993, "typical_price_tier": "moderate"},
  {"iata": "CMN", "city": "Casablanca", "country": "Morocco", "country_code": "MA", "region": "Africa", "subregion": "North Africa", "latitude": 33.3675, "longitude": -7.5898, "typical_price_tier": "moderate"},
  {"iata": "RAK", "city": "Marrakech", "country": "Morocco", "country_code": "MA", "region": "Africa", "subregion": "North Africa", "latitude": 31.6069, "longitude": -8.0363, "typical_price_tier": "moderate"},
  {"iata": "TUN", "city": "Tunis", "country": "Tunisia", "country_code": "TN", "region": "Africa", "subregion": "North Africa", "latitude": 36.8510, "longitude": 10.2272, "typical_price_tier": "moderate"},
  {"iata": "ALG", "city": "Algiers", "country": "Algeria", "country_code": "DZ", "region": "Africa", "subregion": "North Africa", "latitude": 36.6910, "longitude": 3.2154, "typical_price_tier": "moderate"},
  {"iata": "LOS", "city": "Lagos", "country": "Nigeria", "country_code": "NG", "region": "Africa", "subregion": "West Africa", "latitude": 6.5774, "longitude": 3.3214, "typical_price_tier": "moderate"},
  {"iata": "ABV", "city": "Abuja", "country": "Nigeria", "country_code": "NG", "region": "Africa", "subregion": "West Africa", "latitude": 9.0067, "longitude": 7.2632, "typical_price_tier": "moderate"},
  {"iata": "ACC", "city": "Accra", "country": "Ghana", "country_code": "GH", "region": "Africa", "subregion": "West Africa", "latitude": 5.6052, "longitude": -0.1668, "typical_price_tier": "moderate"},
  {"iata": "DKR", "city": "Dakar", "country": "Senegal", "country_code": "SN", "region": "Africa", "subregion": "West Africa", "latitude": 14.7397, "longitude": -17.4902, "typical_price_tier": "moderate"},
  {"iata": "NBO", "city": "Nairobi", "country": "Kenya", "country_code": "KE", "region": "Africa", "subregion": "East Africa", "latitude": -1.3192, "longitude": 36.9275, "typical_price_tier": "moderate"},
  {"iata": "MBA", "city": "Mombasa", "country": "Kenya", "country_code": "KE", "region": "Africa", "subregion": "East Africa", "latitude": -4.0348, "longitude": 39.5942, "typical_price_tier": "moderate"},
  {"iata": "DAR", "city": "Dar es Salaam", "country": "Tanzania", "country_code": "TZ", "region": "Africa", "subregion": "East Africa", "latitude": -6.8781, "longitude": 39.2026, "typical_price_tier": "moderate"},
  {"iata": "JRO", "city": "Kilimanjaro", "country": "Tanzania", "country_code": "TZ", "region": "Africa", "subregion": "East Africa", "latitude": -3.4294, "longitude": 37.0745, "typical_price_tier": "moderate"},
  {"iata": "ADD", "city": "Addis Ababa", "country": "Ethiopia", "country_code": "ET", "region": "Africa", "subregion": "East Africa", "latitude": 8.9779, "longitude": 38.7993, "typical_price_tier": "moderate"},
  {"iata": "KGL", "city": "Kigali", "country": "Rwanda", "country_code": "RW", "region": "Africa", "subregion": "East Africa", "latitude": -1.9686, "longitude": 30.1395, "typical_price_tier": "moderate"},
  {"iata": "EBB", "city": "Entebbe", "country": "Uganda", "country_code": "UG", "region": "Africa", "subregion": "East Africa", "latitude": 0.0424, "longitude": 32.4435, "typical_price_tier": "moderate"},
  {"iata": "JNB", "city": "Johannesburg", "country": "South Africa", "country_code": "ZA", "region": "Africa", "subregion": "Southern Africa", "latitude": -26.1367, "longitude": 28.2425, "typical_price_tier": "moderate"},
  {"iata": "CPT", "city": "Cape Town", "country": "South Africa", "country_code": "ZA", "region": "Africa", "subregion": "Southern Africa", "latitude": -33.9649, "longitude": 18.6017, "typical_price_tier": "moderate"},
  {"iata": "DUR", "city": "Durban", "country": "South Africa", "country_code": "ZA", "region": "Africa", "subregion": "Southern Africa", "latitude": -29.6144, "longitude": 31.1197, "typical_price_tier": "moderate"},
  {"iata": "MRU", "city": "Mauritius", "country": "Mauritius", "country_code": "MU", "region": "Africa", "subregion": "Indian Ocean Islands", "latitude": -20.4302, "longitude": 57.6836, "typical_price_tier": "premium"},
  {"iata": "TNR", "city": "Antananarivo", "country": "Madagascar", "country_code": "MG", "region": "Africa", "subregion": "Indian Ocean Islands", "latitude": -18.7969, "longitude": 47.4788, "typical_price_tier": "moderate"},
  {"iata": "DLA", "city": "Douala", "country": "Cameroon", "country_code": "CM", "region": "Africa", "subregion": "Central Africa", "latitude": 4.0061, "longitude": 9.7196, "typical_price_tier": "moderate"},
  {"iata": "DEL", "city": "Delhi", "country": "India", "country_code": "IN", "region": "South Asia", "subregion": "India", "latitude": 28.5665, "longitude": 77.1031, "typical_price_tier": "moderate"},
  {"iata": "BOM", "city": "Mumbai", "country": "India", "country_code": "IN", "region": "South Asia", "subregion": "India", "latitude": 19.0896, "longitude": 72.8656, "typical_price_tier": "moderate"},
  {"iata": "BLR", "city": "Bangalore", "country": "India", "country_code": "IN", "region": "South Asia", "subregion": "India", "latitude": 13.1986, "longitude": 77.7066, "typical_price_tier": "moderate"},
  {"iata": "MAA", "city": "Chennai", "country": "India", "country_code": "IN", "region": "South Asia", "subregion": "India", "latitude": 12.9941, "longitude": 80.1709, "typical_price_tier": "moderate"},
  {"iata": "CCU", "city": "Kolkata", "country": "India", "country_code": "IN", "region": "South Asia", "subregion": "India", "latitude": 22.6547, "longitude": 88.4467, "typical_price_tier": "moderate"},
  {"iata": "HYD", "city": "Hyderabad", "country": "India", "country_code": "IN", "region": "South Asia", "subregion": "India", "latitude": 17.2403, "longitude": 78.4294, "typical_price_tier": "moderate"},
  {"iata": "GOI", "city": "Goa", "country": "India", "country_code": "IN", "region": "South Asia", "subregion": "India", "latitude": 15.3808, "longitude": 73.8314, "typical_price_tier": "moderate"},
  {"iata": "DAC", "city": "Dhaka", "country": "Bangladesh", "country_code": "BD", "region": "South Asia", "subregion": "South Asia", "latitude": 23.8433, "longitude": 90.3978, "typical_price_tier": "moderate"},
  {"iata": "KTM", "city": "Kathmandu", "country": "Nepal", "country_code": "NP", "region": "South Asia", "subregion": "South Asia", "latitude": 27.6966, "longitude": 85.3591, "typical_price_tier": "moderate"},
  {"iata": "CMB", "city": "Colombo", "country": "Sri Lanka", "country_code": "LK", "region": "South Asia", "subregion": "South Asia", "latitude": 7.1808, "longitude": 79.8841, "typical_price_tier": "moderate"},
  {"iata": "MLE", "city": "Male", "country": "Maldives", "country_code": "MV", "region": "South Asia", "subregion": "South Asia", "latitude": 4.1918, "longitude": 73.5290, "typical_price_tier": "premium"},
  {"iata": "BKK", "city": "Bangkok", "country": "Thailand", "country_code": "TH", "region": "Southeast Asia", "subregion": "Mainland SE Asia", "latitude": 13.6811, "longitude": 100.7475, "typical_price_tier": "moderate"},
  {"iata": "HKT", "city": "Phuket", "country": "Thailand", "country_code": "TH", "region": "Southeast Asia", "subregion": "Mainland SE Asia", "latitude": 8.1132, "longitude": 98.3170, "typical_price_tier": "moderate"},
  {"iata": "CNX", "city": "Chiang Mai", "country": "Thailand", "country_code": "TH", "region": "Southeast Asia", "subregion": "Mainland SE Asia", "latitude": 18.7669, "longitude": 98.9628, "typical_price_tier": "moderate"},
  {"iata": "HAN", "city": "Hanoi", "country": "Vietnam", "country_code": "VN", "region": "Southeast Asia", "subregion": "Mainland SE Asia", "latitude": 21.2187, "longitude": 105.8047, "typical_price_tier": "moderate"},
  {"iata": "SGN", "city": "Ho Chi Minh City", "country": "Vietnam", "country_code": "VN", "region": "Southeast Asia", "subregion": "Mainland SE Asia", "latitude": 10.8188, "longitude": 106.6520, "typical_price_tier": "moderate"},
  {"iata": "DAD", "city": "Da Nang", "country": "Vietnam", "country_code": "VN", "region": "Southeast Asia", "subregion": "Mainland SE Asia", "latitude": 16.0439, "longitude": 108.1992, "typical_price_tier": "moderate"},
  {"iata": "CGK", "city": "Jakarta", "country": "Indonesia", "country_code": "ID", "region": "Southeast Asia", "subregion": "Maritime SE Asia", "latitude": -6.1256, "longitude": 106.6559, "typical_price_tier": "moderate"},
  {"iata": "DPS", "city": "Bali", "country": "Indonesia", "country_code": "ID", "region": "Southeast Asia", "subregion": "Maritime SE Asia", "latitude": -8.7482, "longitude": 115.1670, "typical_price_tier": "moderate"},
  {"iata": "KUL", "city": "Kuala Lumpur", "country": "Malaysia", "country_code": "MY", "region": "Southeast Asia", "subregion": "Maritime SE Asia", "latitude": 2.7456, "longitude": 101.7099, "typical_price_tier": "moderate"},
  {"iata": "MNL", "city": "Manila", "country": "Philippines", "country_code": "PH", "region": "Southeast Asia", "subregion": "Maritime SE Asia", "latitude": 14.5086, "longitude": 121.0197, "typical_price_tier": "moderate"},
  {"iata": "CEB", "city": "Cebu", "country": "Philippines", "country_code": "PH", "region": "Southeast Asia", "subregion": "Maritime SE Asia", "latitude": 10.3075, "longitude": 123.9791, "typical_price_tier": "moderate"},
  {"iata": "SIN", "city": "Singapore", "country": "Singapore", "country_code": "SG", "region": "Southeast Asia", "subregion": "Maritime SE Asia", "latitude": 1.3644, "longitude": 103.9915, "typical_price_tier": "moderate"},
  {"iata": "REP", "city": "Siem Reap", "country": "Cambodia", "country_code": "KH", "region": "Southeast Asia", "subregion": "Mainland SE Asia", "latitude": 13.4107, "longitude": 103.8123, "typical_price_tier": "moderate"},
  {"iata": "PNH", "city": "Phnom Penh", "country": "Cambodia", "country_code": "KH", "region": "Southeast Asia", "subregion": "Mainland SE Asia", "latitude": 11.5466, "longitude": 104.8440, "typical_price_tier": "moderate"},
  {"iata": "RGN", "city": "Yangon", "country": "Myanmar", "country_code": "MM", "region": "Southeast Asia", "subregion": "Mainland SE Asia", "latitude": 16.9073, "longitude": 96.1335, "typical_price_tier": "moderate"},
  {"iata": "VTE", "city": "Vientiane", "country": "Laos", "country_code": "LA", "region": "Southeast Asia", "subregion": "Mainland SE Asia", "latitude": 17.9883, "longitude": 102.5630, "typical_price_tier": "moderate"},
  {"iata": "NRT", "city": "Tokyo Narita", "country": "Japan", "country_code": "JP", "region": "East Asia", "subregion": "Japan", "latitude": 35.7647, "longitude": 140.3864, "typical_price_tier": "moderate"},
  {"iata": "HND", "city": "Tokyo Haneda", "country": "Japan", "country_code": "JP", "region": "East Asia", "subregion": "Japan", "latitude": 35.5494, "longitude": 139.7798, "typical_price_tier": "moderate"},
  {"iata": "KIX", "city": "Osaka", "country": "Japan", "country_code": "JP", "region": "East Asia", "subregion": "Japan", "latitude": 34.4347, "longitude": 135.2440, "typical_price_tier": "moderate"},
  {"iata": "CTS", "city": "Sapporo", "country": "Japan", "country_code": "JP", "region": "East Asia", "subregion": "Japan", "latitude": 42.7752, "longitude": 141.6921, "typical_price_tier": "moderate"},
  {"iata": "ICN", "city": "Seoul Incheon", "country": "South Korea", "country_code": "KR", "region": "East Asia", "subregion": "Korea", "latitude": 37.4602, "longitude": 126.4407, "typical_price_tier": "moderate"},
  {"iata": "PUS", "city": "Busan", "country": "South Korea", "country_code": "KR", "region": "East Asia", "subregion": "Korea", "latitude": 35.1795, "longitude": 128.9382, "typical_price_tier": "moderate"},
  {"iata": "PEK", "city": "Beijing", "country": "China", "country_code": "CN", "region": "East Asia", "subregion": "China", "latitude": 40.0801, "longitude": 116.5846, "typical_price_tier": "moderate"},
  {"iata": "PVG", "city": "Shanghai", "country": "China", "country_code": "CN", "region": "East Asia", "subregion": "China", "latitude": 31.1443, "longitude": 121.8083, "typical_price_tier": "moderate"},
  {"iata": "CAN", "city": "Guangzhou", "country": "China", "country_code": "CN", "region": "East Asia", "subregion": "China", "latitude": 23.3924, "longitude": 113.2988, "typical_price_tier": "moderate"},
  {"iata": "CTU", "city": "Chengdu", "country": "China", "country_code": "CN", "region": "East Asia", "subregion": "China", "latitude": 30.5785, "longitude": 103.9473, "typical_price_tier": "moderate"},
  {"iata": "HKG", "city": "Hong Kong", "country": "Hong Kong", "country_code": "HK", "region": "East Asia", "subregion": "East Asia", "latitude": 22.3080, "longitude": 113.9185, "typical_price_tier": "moderate"},
  {"iata": "TPE", "city": "Taipei", "country": "Taiwan", "country_code": "TW", "region": "East Asia", "subregion": "East Asia", "latitude": 25.0777, "longitude": 121.2325, "typical_price_tier": "moderate"},
  {"iata": "MFM", "city": "Macau", "country": "Macau", "country_code": "MO", "region": "East Asia", "subregion": "East Asia", "latitude": 22.1496, "longitude": 113.5916, "typical_price_tier": "moderate"},
  {"iata": "ALA", "city": "Almaty", "country": "Kazakhstan", "country_code": "KZ", "region": "Central Asia", "subregion": "Central Asia", "latitude": 43.3521, "longitude": 77.0405, "typical_price_tier": "moderate"},
  {"iata": "TAS", "city": "Tashkent", "country": "Uzbekistan", "country_code": "UZ", "region": "Central Asia", "subregion": "Central Asia", "latitude": 41.2579, "longitude": 69.2814, "typical_price_tier": "moderate"},
  {"iata": "TBS", "city": "Tbilisi", "country": "Georgia", "country_code": "GE", "region": "Central Asia", "subregion": "Caucasus", "latitude": 41.6693, "longitude": 44.9547, "typical_price_tier": "moderate"},
  {"iata": "EVN", "city": "Yerevan", "country": "Armenia", "country_code": "AM", "region": "Central Asia", "subregion": "Caucasus", "latitude": 40.1473, "longitude": 44.3959, "typical_price_tier": "moderate"},
  {"iata": "GYD", "city": "Baku", "country": "Azerbaijan", "country_code": "AZ", "region": "Central Asia", "subregion": "Caucasus", "latitude": 40.4675, "longitude": 50.0467, "typical_price_tier": "moderate"},
  {"iata": "SYD", "city": "Sydney", "country": "Australia", "country_code": "AU", "region": "Oceania", "subregion": "Australia", "latitude": -33.9399, "longitude": 151.1753, "typical_price_tier": "premium"},
  {"iata": "MEL", "city": "Melbourne", "country": "Australia", "country_code": "AU", "region": "Oceania", "subregion": "Australia", "latitude": -37.6690, "longitude": 144.8410, "typical_price_tier": "premium"},
  {"iata": "BNE", "city": "Brisbane", "country": "Australia", "country_code": "AU", "region": "Oceania", "subregion": "Australia", "latitude": -27.3842, "longitude": 153.1175, "typical_price_tier": "premium"},
  {"iata": "PER", "city": "Perth", "country": "Australia", "country_code": "AU", "region": "Oceania", "subregion": "Australia", "latitude": -31.9403, "longitude": 115.9669, "typical_price_tier": "premium"},
  {"iata": "ADL", "city": "Adelaide", "country": "Australia", "country_code": "AU", "region": "Oceania", "subregion": "Australia", "latitude": -34.9450, "longitude": 138.5300, "typical_price_tier": "premium"},
  {"iata": "AKL", "city": "Auckland", "country": "New Zealand", "country_code": "NZ", "region": "Oceania", "subregion": "New Zealand", "latitude": -37.0082, "longitude": 174.7850, "typical_price_tier": "premium"},
  {"iata": "CHC", "city": "Christchurch", "country": "New Zealand", "country_code": "NZ", "region": "Oceania", "subregion": "New Zealand", "latitude": -43.4894, "longitude": 172.5320, "typical_price_tier": "premium"},
  {"iata": "WLG", "city": "Wellington", "country": "New Zealand", "country_code": "NZ", "region": "Oceania", "subregion": "New Zealand", "latitude": -41.3272, "longitude": 174.8051, "typical_price_tier": "premium"},
  {"iata": "PPT", "city": "Papeete", "country": "French Polynesia", "country_code": "PF", "region": "Oceania", "subregion": "Pacific Islands", "latitude": -17.5534, "longitude": -149.6067, "typical_price_tier": "premium"},
  {"iata": "NAN", "city": "Nadi", "country": "Fiji", "country_code": "FJ", "region": "Oceania", "subregion": "Pacific Islands", "latitude": -17.7553, "longitude": 177.4430, "typical_price_tier": "premium"},
  {"iata": "HIR", "city": "Honiara", "country": "Solomon Islands", "country_code": "SB", "region": "Oceania", "subregion": "Pacific Islands", "latitude": -9.4280, "longitude": 160.0549, "typical_price_tier": "premium"},
  {"iata": "VLI", "city": "Port Vila", "country": "Vanuatu", "country_code": "VU", "region": "Oceania", "subregion": "Pacific Islands", "latitude": -17.6993, "longitude": 168.3200, "typical_price_tier": "premium"},
  {"iata": "GUM", "city": "Guam", "country": "Guam", "country_code": "GU", "region": "Oceania", "subregion": "Pacific Islands", "latitude": 13.4834, "longitude": 144.7960, "typical_price_tier": "premium"},
  {"iata": "NTE", "city": "Nantes", "country": "France", "country_code": "FR", "region": "Western Europe", "subregion": "Western Europe", "latitude": 47.1532, "longitude": -1.6108, "typical_price_tier": "moderate"},
  {"iata": "TLS", "city": "Toulouse", "country": "France", "country_code": "FR", "region": "Western Europe", "subregion": "Western Europe", "latitude": 43.6291, "longitude": 1.3638, "typical_price_tier": "moderate"},
  {"iata": "BOD", "city": "Bordeaux", "country": "France", "country_code": "FR", "region": "Western Europe", "subregion": "Western Europe", "latitude": 44.8283, "longitude": -0.7155, "typical_price_tier": "moderate"},
  {"iata": "LYS", "city": "Lyon", "country": "France", "country_code": "FR", "region": "Western Europe", "subregion": "Western Europe", "latitude": 45.7256, "longitude": 5.0811, "typical_price_tier": "moderate"},
  {"iata": "STR", "city": "Stuttgart", "country": "Germany", "country_code": "DE", "region": "Western Europe", "subregion": "Central Europe", "latitude": 48.6899, "longitude": 9.2220, "typical_price_tier": "moderate"},
  {"iata": "CGN", "city": "Cologne", "country": "Germany", "country_code": "DE", "region": "Western Europe", "subregion": "Central Europe", "latitude": 50.8659, "longitude": 7.1427, "typical_price_tier": "moderate"},
  {"iata": "NUE", "city": "Nuremberg", "country": "Germany", "country_code": "DE", "region": "Western Europe", "subregion": "Central Europe", "latitude": 49.4987, "longitude": 11.0669, "typical_price_tier": "moderate"},
  {"iata": "FUE", "city": "Fuerteventura", "country": "Spain", "country_code": "ES", "region": "Western Europe", "subregion": "Iberian Peninsula", "latitude": 28.4527, "longitude": -13.8638, "typical_price_tier": "moderate"},
  {"iata": "TFS", "city": "Tenerife South", "country": "Spain", "country_code": "ES", "region": "Western Europe", "subregion": "Iberian Peninsula", "latitude": 28.0445, "longitude": -16.5725, "typical_price_tier": "moderate"},
  {"iata": "IBZ", "city": "Ibiza", "country": "Spain", "country_code": "ES", "region": "Western Europe", "subregion": "Iberian Peninsula", "latitude": 38.8729, "longitude": 1.3731, "typical_price_tier": "moderate"},
  {"iata": "LPA", "city": "Gran Canaria", "country": "Spain", "country_code": "ES", "region": "Western Europe", "subregion": "Iberian Peninsula", "latitude": 27.9319, "longitude": -15.3866, "typical_price_tier": "moderate"},
  {"iata": "FAO", "city": "Faro", "country": "Portugal", "country_code": "PT", "region": "Western Europe", "subregion": "Iberian Peninsula", "latitude": 37.0144, "longitude": -7.9659, "typical_price_tier": "moderate"},
  {"iata": "LCA", "city": "Larnaca", "country": "Cyprus", "country_code": "CY", "region": "Western Europe", "subregion": "Southern Europe", "latitude": 34.8751, "longitude": 33.6249, "typical_price_tier": "moderate"},
  {"iata": "RHO", "city": "Rhodes", "country": "Greece", "country_code": "GR", "region": "Western Europe", "subregion": "Southern Europe", "latitude": 36.4054, "longitude": 28.0862, "typical_price_tier": "moderate"},
  {"iata": "POZ", "city": "Poznan", "country": "Poland", "country_code": "PL", "region": "Eastern Europe", "subregion": "Central-Eastern Europe", "latitude": 52.4210, "longitude": 16.8263, "typical_price_tier": "budget"},
  {"iata": "GDN", "city": "Gdansk", "country": "Poland", "country_code": "PL", "region": "Eastern Europe", "subregion": "Central-Eastern Europe", "latitude": 54.3776, "longitude": 18.4662, "typical_price_tier": "budget"},
  {"iata": "LWO", "city": "Lviv", "country": "Ukraine", "country_code": "UA", "region": "Eastern Europe", "subregion": "Eastern Europe", "latitude": 49.8125, "longitude": 23.9561, "typical_price_tier": "budget"},
  {"iata": "TSR", "city": "Timisoara", "country": "Romania", "country_code": "RO", "region": "Eastern Europe", "subregion": "Balkans", "latitude": 45.8099, "longitude": 21.3379, "typical_price_tier": "budget"},
  {"iata": "CLJ", "city": "Cluj-Napoca", "country": "Romania", "country_code": "RO", "region": "Eastern Europe", "subregion": "Balkans", "latitude": 46.7852, "longitude": 23.6862, "typical_price_tier": "budget"},
  {"iata": "SHJ", "city": "Sharjah", "country": "United Arab Emirates", "country_code": "AE", "region": "Middle East", "subregion": "Gulf", "latitude": 25.3286, "longitude": 55.5172, "typical_price_tier": "moderate"},
  {"iata": "ADB", "city": "Izmir", "country": "Turkey", "country_code": "TR", "region": "Middle East", "subregion": "Turkey", "latitude": 38.2924, "longitude": 27.1570, "typical_price_tier": "moderate"},
  {"iata": "ESB", "city": "Ankara", "country": "Turkey", "country_code": "TR", "region": "Middle East", "subregion": "Turkey", "latitude": 40.1281, "longitude": 32.9951, "typical_price_tier": "moderate"},
  {"iata": "POA", "city": "Porto Alegre", "country": "Brazil", "country_code": "BR", "region": "South America", "subregion": "Brazil", "latitude": -29.9944, "longitude": -51.1713, "typical_price_tier": "moderate"},
  {"iata": "CWB", "city": "Curitiba", "country": "Brazil", "country_code": "BR", "region": "South America", "subregion": "Brazil", "latitude": -25.5285, "longitude": -49.1758, "typical_price_tier": "moderate"},
  {"iata": "BSB", "city": "Brasilia", "country": "Brazil", "country_code": "BR", "region": "South America", "subregion": "Brazil", "latitude": -15.8711, "longitude": -47.9186, "typical_price_tier": "moderate"},
  {"iata": "FOR", "city": "Fortaleza", "country": "Brazil", "country_code": "BR", "region": "South America", "subregion": "Brazil", "latitude": -3.7762, "longitude": -38.5326, "typical_price_tier": "moderate"},
  {"iata": "LPB", "city": "La Paz", "country": "Bolivia", "country_code": "BO", "region": "South America", "subregion": "Western SA", "latitude": -16.5133, "longitude": -68.1922, "typical_price_tier": "moderate"},
  {"iata": "LUN", "city": "Lusaka", "country": "Zambia", "country_code": "ZM", "region": "Africa", "subregion": "Southern Africa", "latitude": -15.3308, "longitude": 28.4526, "typical_price_tier": "moderate"},
  {"iata": "HRE", "city": "Harare", "country": "Zimbabwe", "country_code": "ZW", "region": "Africa", "subregion": "Southern Africa", "latitude": -17.9318, "longitude": 31.0928, "typical_price_tier": "moderate"},
  {"iata": "MPM", "city": "Maputo", "country": "Mozambique", "country_code": "MZ", "region": "Africa", "subregion": "Southern Africa", "latitude": -25.9208, "longitude": 32.5726, "typical_price_tier": "moderate"},
  {"iata": "ABJ", "city": "Abidjan", "country": "Ivory Coast", "country_code": "CI", "region": "Africa", "subregion": "West Africa", "latitude": 5.2613, "longitude": -3.9263, "typical_price_tier": "moderate"},
  {"iata": "BKO", "city": "Bamako", "country": "Mali", "country_code": "ML", "region": "Africa", "subregion": "West Africa", "latitude": 12.5335, "longitude": -7.9499, "typical_price_tier": "moderate"},
  {"iata": "SEZ", "city": "Mahe", "country": "Seychelles", "country_code": "SC", "region": "Africa", "subregion": "Indian Ocean Islands", "latitude": -4.6742, "longitude": 55.5218, "typical_price_tier": "premium"},
  {"iata": "RUN", "city": "Saint-Denis", "country": "Reunion", "country_code": "RE", "region": "Africa", "subregion": "Indian Ocean Islands", "latitude": -20.8871, "longitude": 55.5103, "typical_price_tier": "premium"},
  {"iata": "FIH", "city": "Kinshasa", "country": "Democratic Republic of Congo", "country_code": "CD", "region": "Africa", "subregion": "Central Africa", "latitude": -4.3857, "longitude": 15.4446, "typical_price_tier": "moderate"},
  {"iata": "LGK", "city": "Langkawi", "country": "Malaysia", "country_code": "MY", "region": "Southeast Asia", "subregion": "Maritime SE Asia", "latitude": 6.3300, "longitude": 99.7286, "typical_price_tier": "moderate"},
  {"iata": "BDO", "city": "Bandung", "country": "Indonesia", "country_code": "ID", "region": "Southeast Asia", "subregion": "Maritime SE Asia", "latitude": -6.9006, "longitude": 107.5760, "typical_price_tier": "moderate"},
  {"iata": "JOG", "city": "Yogyakarta", "country": "Indonesia", "country_code": "ID", "region": "Southeast Asia", "subregion": "Maritime SE Asia", "latitude": -7.7882, "longitude": 110.4317, "typical_price_tier": "moderate"},
  {"iata": "LPQ", "city": "Luang Prabang", "country": "Laos", "country_code": "LA", "region": "Southeast Asia", "subregion": "Mainland SE Asia", "latitude": 19.8973, "longitude": 102.1614, "typical_price_tier": "moderate"},
  {"iata": "MES", "city": "Medan", "country": "Indonesia", "country_code": "ID", "region": "Southeast Asia", "subregion": "Maritime SE Asia", "latitude": 3.5592, "longitude": 98.6713, "typical_price_tier": "moderate"},
  {"iata": "FRU", "city": "Bishkek", "country": "Kyrgyzstan", "country_code": "KG", "region": "Central Asia", "subregion": "Central Asia", "latitude": 43.0613, "longitude": 74.4776, "typical_price_tier": "moderate"},
  {"iata": "DYU", "city": "Dushanbe", "country": "Tajikistan", "country_code": "TJ", "region": "Central Asia", "subregion": "Central Asia", "latitude": 38.5433, "longitude": 68.8249, "typical_price_tier": "moderate"},
  {"iata": "ASB", "city": "Ashgabat", "country": "Turkmenistan", "country_code": "TM", "region": "Central Asia", "subregion": "Central Asia", "latitude": 37.9868, "longitude": 58.3610, "typical_price_tier": "moderate"},
  {"iata": "OSS", "city": "Osh", "country": "Kyrgyzstan", "country_code": "KG", "region": "Central Asia", "subregion": "Central Asia", "latitude": 40.6090, "longitude": 72.7933, "typical_price_tier": "moderate"}
]
